{
  "BARA_0000000000171": {
    "name": "괴정2 재개발",
    "loc": "괴정동 216-10 일원",
    "gu": "사하구",
    "lat": 35.10602321,
    "lng": 128.9988522
  },
  "BARA_0000000000231": {
    "name": "괴정2 재건축",
    "loc": "사하구 괴정동 733 일원",
    "gu": "사하구",
    "lat": 35.09843548,
    "lng": 128.9875344
  },
  "BARA_0000000030106": {
    "name": "괴정2 가로주택정비",
    "loc": "사하구 승학로 146-1, 2층",
    "gu": "사하구",
    "lat": 35.102961,
    "lng": 128.98289
  },
  "BARA_0000000030015": {
    "name": "괴정3 재건축",
    "loc": "괴정동 530-13번지 일원",
    "gu": "사하구",
    "lat": 35.0955461,
    "lng": 128.9902422
  },
  "BARA_0000000030126": {
    "name": "괴정3 가로주택정비",
    "loc": "승학로 146-1, 2층",
    "gu": "사하구",
    "lat": 35.102961,
    "lng": 128.98289
  },
  "BARA_0000000030004": {
    "name": "괴정5(시범생활권) 재개발",
    "loc": "괴정 571-1번지 일원",
    "gu": "사하구",
    "lat": 35.0988882,
    "lng": 128.9841845
  },
  "BARA_0000000030035": {
    "name": "괴정6 재개발",
    "loc": "사하구 괴정동 486-20번지",
    "gu": "사하구",
    "lat": 35.096073,
    "lng": 128.9918401
  },
  "BARA_0000000030142": {
    "name": "괴정8 재개발",
    "loc": "부산광역시 사하구 사하로141번길 51-1, 2층(괴정동)",
    "gu": "사하구",
    "lat": 35.094774,
    "lng": 128.990278
  },
  "BARA_0000000030147": {
    "name": "구서1 재개발",
    "loc": "금정구 금강로 585-1, 2층",
    "gu": "금정구",
    "lat": 35.259828,
    "lng": 129.087556
  },
  "BARA_0000000000062": {
    "name": "구서3 재건축",
    "loc": "수림로50번길 198",
    "gu": "금정구",
    "lat": 35.2557681,
    "lng": 129.0925545
  },
  "BARA_0000000000061": {
    "name": "구서4 재건축",
    "loc": "부산광역시 금정구 중앙대로1929번길 6, 3층(구서동)",
    "gu": "금정구",
    "lat": 35.257361,
    "lng": 129.089948
  },
  "BARA_0000000000333": {
    "name": "구서5 재건축",
    "loc": "구서중앙로 20",
    "gu": "금정구",
    "lat": 35.2555991,
    "lng": 129.0894428
  },
  "BARA_0000000030027": {
    "name": "구서동(금화,산호,삼산) 소규모재건축",
    "loc": "중앙대로1893번길 5, 2층",
    "gu": "금정구",
    "lat": 35.2532706,
    "lng": 129.0909731
  },
  "BARA_0000000030059": {
    "name": "구일주택(소규모) 소규모재건축",
    "loc": "부산광역시 해운대구 재송1로31번길 55(재송동)",
    "gu": "해운대구",
    "lat": 35.1887903,
    "lng": 129.1248201
  },
  "BARA_0000000000199": {
    "name": "구포3 재개발",
    "loc": "구포동 백양대로 1139, 2층",
    "gu": "북구",
    "lat": 35.20389,
    "lng": 129.002765
  },
  "BARA_0000000030133": {
    "name": "구포8 재개발",
    "loc": "부산시 북구 낙동대로 1762번길 110",
    "gu": "북구",
    "lat": 35.204899,
    "lng": 129.001075
  },
  "BARA_0000000030063": {
    "name": "구포대진아파트 소규모재건축",
    "loc": "북구 백양대로 1124번길 104, 지하1층",
    "gu": "북구",
    "lat": 35.2004225,
    "lng": 129.0041424
  },
  "BARA_0000000000337": {
    "name": "금곡2-1 재개발",
    "loc": "금곡대로 430번가길 30(금곡동)",
    "gu": "북구",
    "lat": 35.24623995,
    "lng": 129.0139638
  },
  "BARA_0000000030197": {
    "name": "금사1 재개발",
    "loc": "금정구 금사동 26-1번지",
    "gu": "금정구",
    "lat": 35.2245373676395,
    "lng": 129.114326897267
  },
  "BARA_0000000030040": {
    "name": "남강맨션 가로주택정비",
    "loc": "수영구 광안동 165-10번지",
    "gu": "수영구",
    "lat": 35.1539005,
    "lng": 129.1129288
  },
  "BARA_0000000000060": {
    "name": "남산1 재건축",
    "loc": "중앙대로1945번길 21, 2층",
    "gu": "금정구",
    "lat": 35.2585155,
    "lng": 129.0926929
  },
  "BARA_0000000030196": {
    "name": "남산역1번출구 소규모재개발",
    "loc": "금정구 중앙대로 2007번길6",
    "gu": "금정구",
    "lat": 35.2637202012898,
    "lng": 129.09160715731
  },
  "BARA_0000000030039": {
    "name": "남일,흥아아파트 가로주택정비",
    "loc": "연제구 중앙대로 1159 C동 607호(연산동, 남일아파트)",
    "gu": "연제구",
    "lat": 35.1908703,
    "lng": 129.0799004
  },
  "BARA_0000000030111": {
    "name": "남천 백산 소규모재건축",
    "loc": "수영구 수영로464번길 22, 302호",
    "gu": "수영구",
    "lat": 35.146908,
    "lng": 129.111369
  },
  "BARA_0000000000074": {
    "name": "남천2 재개발",
    "loc": "황령대로 489번길 22(남천동)",
    "gu": "수영구",
    "lat": 35.14156513,
    "lng": 129.1054079
  },
  "BARA_0000000000082": {
    "name": "남천2-1-2(삼익빌라) 재건축",
    "loc": "수영구 남천동 148-17",
    "gu": "수영구",
    "lat": 35.14451863,
    "lng": 129.1119269
  },
  "BARA_0000000000083": {
    "name": "남천2-2(삼익타워) 재건축",
    "loc": "광남로 32 4층",
    "gu": "수영구",
    "lat": 35.14048938,
    "lng": 129.1130436
  },
  "BARA_0000000000084": {
    "name": "남천2-3(삼익비치) 재건축",
    "loc": "남천동로82 반도빌딩 3층",
    "gu": "수영구",
    "lat": 35.14297343,
    "lng": 129.1163046
  },
  "BARA_0000000030112": {
    "name": "다대4 재건축",
    "loc": "부산광역시 사하구 다대로 405, 3층",
    "gu": "사하구",
    "lat": 35.067066,
    "lng": 128.980269
  },
  "BARA_0000000000321": {
    "name": "당감1 재건축",
    "loc": "당감동 479-2번지 일원(무궁화)",
    "gu": "부산진구",
    "lat": 35.1631583449401,
    "lng": 129.034696170995
  },
  "BARA_0000000030025": {
    "name": "당감1-1 재건축",
    "loc": "당감동 175-2번지 일원",
    "gu": "부산진구",
    "lat": 35.16192257,
    "lng": 129.0388866
  },
  "BARA_0000000000232": {
    "name": "당리1 재건축",
    "loc": "당리동 237-2번지 일원",
    "gu": "사하구",
    "lat": 35.1076477,
    "lng": 128.9701685
  },
  "BARA_0000000000175": {
    "name": "당리2 재개발",
    "loc": "당리동 340번지",
    "gu": "사하구",
    "lat": 35.100281,
    "lng": 128.978301
  },
  "BARA_0000000000236": {
    "name": "당리2 재건축",
    "loc": "부산광역시 사하구 다대로 30, 상가1동 101호",
    "gu": "사하구",
    "lat": 35.09892151,
    "lng": 128.9766942
  },
  "BARA_0000000030154": {
    "name": "당리4 재개발",
    "loc": "사하구 괴정로 111-1, 3층",
    "gu": "사하구",
    "lat": 35.1021217309122,
    "lng": 128.976377833567
  },
  "BARA_0000000030036": {
    "name": "대라주공아파트 소규모재건축",
    "loc": "기장군 기장읍 대라리 128-11",
    "gu": "기장군",
    "lat": 35.2400995,
    "lng": 129.2139568
  },
  "BARA_0000000030107": {
    "name": "대림비치아파트 소규모재건축사업 소규모재건축",
    "loc": "부산광역시 해운대구 1396-1 관리사무실",
    "gu": "해운대구",
    "lat": 35.160831,
    "lng": 129.16303
  },
  "BARA_0000000030068": {
    "name": "대성주택 소규모재건축",
    "loc": "동제당로 75, 경로당",
    "gu": "남구",
    "lat": 35.1319353,
    "lng": 129.0771489
  },
  "BARA_0000000030071": {
    "name": "대연 가로주택정비",
    "loc": "못골번영로 71번길 16, 1층",
    "gu": "남구",
    "lat": 35.1415544,
    "lng": 129.0879002
  },
  "BARA_0000000030064": {
    "name": "대연1 가로주택정비",
    "loc": "못골번영로 69, 지하1층",
    "gu": "남구",
    "lat": 35.1413916,
    "lng": 129.0887639
  },
  "BARA_0000000000178": {
    "name": "대연2 재개발",
    "loc": "대연6동 1595번지 일원",
    "gu": "남구",
    "lat": 35.136308,
    "lng": 129.081952
  },
  "BARA_0000000000277": {
    "name": "대연2 재건축",
    "loc": "진남로70번길 1, 3층 301호(대연동, 동원빌딩)",
    "gu": "남구",
    "lat": 35.1354904,
    "lng": 129.0853232
  },
  "BARA_0000000000179": {
    "name": "대연3 재개발",
    "loc": "수영로 189, 3층 (대연동, 우리은행)",
    "gu": "남구",
    "lat": 35.13316392,
    "lng": 129.0798356
  },
  "BARA_0000000000278": {
    "name": "대연3 재건축",
    "loc": "황령대로 488, 7층 (대연동, 원자빌딩)",
    "gu": "남구",
    "lat": 35.13665066,
    "lng": 129.1059736
  },
  "BARA_0000000000180": {
    "name": "대연4 재개발",
    "loc": "천제등로 30, 5층 (대연동, 성산빌딩)",
    "gu": "남구",
    "lat": 35.130602,
    "lng": 129.085515
  },
  "BARA_0000000000279": {
    "name": "대연4 재건축",
    "loc": "황령대로 488, 원자빌딩 2",
    "gu": "남구",
    "lat": 35.13654712,
    "lng": 129.1083566
  },
  "BARA_0000000000181": {
    "name": "대연5 재개발",
    "loc": "용소로28번길 8, 7층 (대연동,금하빌딩)",
    "gu": "남구",
    "lat": 35.129806,
    "lng": 129.103501
  },
  "BARA_0000000000182": {
    "name": "대연6 재개발",
    "loc": "홍곡로320번길 106, 3층(대연동, UN평화기념관)",
    "gu": "남구",
    "lat": 35.12486197,
    "lng": 129.0899782
  },
  "BARA_0000000000183": {
    "name": "대연7 재개발",
    "loc": "대연5동 1903번지 일원",
    "gu": "남구",
    "lat": 35.1370208677899,
    "lng": 129.09412148376
  },
  "BARA_0000000000184": {
    "name": "대연8 재개발",
    "loc": "석포로 76, 7층 (대연동)",
    "gu": "남구",
    "lat": 35.129063,
    "lng": 129.09023
  },
  "BARA_0000000030047": {
    "name": "대연동 가로주택정비",
    "loc": "못골번영로 69, 2층",
    "gu": "남구",
    "lat": 35.1430744,
    "lng": 129.0895731
  },
  "BARA_0000000030037": {
    "name": "대연맨션 소규모재건축",
    "loc": "수영로 289(대연동, 대연맨션)",
    "gu": "남구",
    "lat": 35.137378,
    "lng": 129.100373
  },
  "BARA_0000000030087": {
    "name": "대연역 가로주택정비",
    "loc": "수영로 250번가길 11-16(대연동)",
    "gu": "남구",
    "lat": 35.134117,
    "lng": 129.096336
  },
  "BARA_0000000030168": {
    "name": "대우마리나1,2차 재건축",
    "loc": "부산광역시 해운대구 해운대해변로 141, 관리사무소동 2층",
    "gu": "해운대구",
    "lat": 35.1597725794253,
    "lng": 129.148983664453
  },
  "BARA_0000000030198": {
    "name": "대우마리나3차 재건축",
    "loc": "부산광역시 해운대구 해운대해변로115, 대우마리나 3차 아파트 관리사무소 2층",
    "gu": "해운대구",
    "lat": 35.1620496306781,
    "lng": 129.145118731208
  },
  "BARA_0000000000215": {
    "name": "대평1 재개발",
    "loc": "대평동 1가 1번지 일원",
    "gu": "영도구",
    "lat": 35.0913692068559,
    "lng": 129.03606815475
  },
  "BARA_0000000030093": {
    "name": "대호세화아파트 소규모재건축",
    "loc": "낙동대로451번길 13, 3층",
    "gu": "사하구",
    "lat": 35.1045553,
    "lng": 128.9696489
  },
  "BARA_0000000030190": {
    "name": "덕천1 재개발",
    "loc": "부산광역시 북구 만덕대로77번길 31-1, 1층",
    "gu": "북구",
    "lat": 35.2134975314299,
    "lng": 129.012505050861
  },
  "BARA_0000000000299": {
    "name": "덕천2 재건축",
    "loc": "북구 만덕대로84, 성암빌딩2층",
    "gu": "북구",
    "lat": 35.21343264,
    "lng": 129.0149533
  },
  "BARA_0000000000281": {
    "name": "덕천2-1 재건축",
    "loc": "덕천동 357-12번지 일원",
    "gu": "북구",
    "lat": 35.21267667,
    "lng": 129.013572
  },
  "BARA_0000000000328": {
    "name": "덕천3 재건축",
    "loc": "만덕대로 169 3층 (보성빌딩)",
    "gu": "북구",
    "lat": 35.21396446,
    "lng": 129.0179095
  },
  "BARA_0000000000223": {
    "name": "덕포1 재개발",
    "loc": "사상구 덕포동 220번지 일원",
    "gu": "사상구",
    "lat": 35.17088513,
    "lng": 128.983896
  },
  "BARA_0000000000303": {
    "name": "덕포1 재건축",
    "loc": "-",
    "gu": "사상구",
    "lat": 35.16901883117987,
    "lng": 128.98081101946244
  },
  "BARA_0000000030174": {
    "name": "도시아파트 소규모재건축",
    "loc": "부산광역시 영도구 동삼동 220-1, 도시아파트",
    "gu": "영도구",
    "lat": 35.0844116644182,
    "lng": 129.071908805701
  },
  "BARA_0000000030078": {
    "name": "동광세화맨션 소규모재건축",
    "loc": "남산동 39-1",
    "gu": "금정구",
    "lat": 35.2638423,
    "lng": 129.0930194
  },
  "BARA_0000000000132": {
    "name": "동대신1 재건축",
    "loc": "구덕로296번길 40-1(동대신동2가)",
    "gu": "서구",
    "lat": 35.11281195,
    "lng": 129.0185607
  },
  "BARA_0000000000127": {
    "name": "동대신2 재개발",
    "loc": "보수대로173, 3층(동대신동 1가)",
    "gu": "서구",
    "lat": 35.11144525,
    "lng": 129.0235141
  },
  "BARA_0000000000216": {
    "name": "동삼1 재개발",
    "loc": "동삼1동 323-30번지 일원",
    "gu": "영도구",
    "lat": 35.08007603,
    "lng": 129.0668471
  },
  "BARA_0000000030125": {
    "name": "동삼1 재건축",
    "loc": "영도구 절영로 504, 조양비취맨션 상가동 111호",
    "gu": "영도구",
    "lat": 35.070938,
    "lng": 129.070768
  },
  "BARA_0000000000217": {
    "name": "동삼2 재개발",
    "loc": "동삼동 383-1번지 일원",
    "gu": "영도구",
    "lat": 35.07561513,
    "lng": 129.0742822
  },
  "BARA_0000000030031": {
    "name": "동성하이타운 가로주택정비",
    "loc": "못골번영로 16, 흥원빌딩 3층",
    "gu": "남구",
    "lat": 35.13360532,
    "lng": 129.0875046
  },
  "BARA_0000000030122": {
    "name": "동의대역세권 가로주택정비",
    "loc": "가야대로587번길 11-5 (2층)",
    "gu": "부산진구",
    "lat": 35.1552240866449,
    "lng": 129.035748759108
  },
  "BARA_0000000030114": {
    "name": "럭키무지개 가로주택정비사업 가로주택정비",
    "loc": "부산광역시 부산진구 신천대로 266, 2층(부암동)",
    "gu": "부산진구",
    "lat": 35.165578,
    "lng": 129.050588
  },
  "BARA_0000000000297": {
    "name": "만덕2 재건축",
    "loc": "북구 덕천로 303 4층(만덕동)",
    "gu": "북구",
    "lat": 35.20643651,
    "lng": 129.0419861
  },
  "BARA_0000000000298": {
    "name": "만덕3 재건축",
    "loc": "북구 만덕1로 15 3층",
    "gu": "북구",
    "lat": 35.21473898,
    "lng": 129.0273526
  },
  "BARA_0000000000329": {
    "name": "만덕4 재건축",
    "loc": "북구 덕천로276번길 5",
    "gu": "북구",
    "lat": 35.209217,
    "lng": 129.035006
  },
  "BARA_0000000000075": {
    "name": "망미1 재개발",
    "loc": "망미배산로 70번길 37(망미동)",
    "gu": "수영구",
    "lat": 35.17653643,
    "lng": 129.1015392
  },
  "BARA_0000000030150": {
    "name": "망미7 재개발",
    "loc": "부산광역시 수영구 망미배산로22, 2층",
    "gu": "수영구",
    "lat": 35.17442,
    "lng": 129.105895
  },
  "BARA_0000000000269": {
    "name": "명륜2 재건축",
    "loc": "동래구 명륜동 702-47번지 일원",
    "gu": "동래구",
    "lat": 35.21206173,
    "lng": 129.0802946
  },
  "BARA_0000000000209": {
    "name": "명륜4 재개발",
    "loc": "동래구 명륜동 650-1번지 일원",
    "gu": "동래구",
    "lat": 35.20738372,
    "lng": 129.0806169
  },
  "BARA_0000000030026": {
    "name": "명보아파트 가로주택정비",
    "loc": "동래구 온천동 1448-1번지 일원",
    "gu": "동래구",
    "lat": 35.2040903941645,
    "lng": 129.06988838549
  },
  "BARA_0000000000210": {
    "name": "명장1 재개발",
    "loc": "동래구 명장동 623번지 일원",
    "gu": "동래구",
    "lat": 35.205745,
    "lng": 129.107263
  },
  "BARA_0000000030043": {
    "name": "명장동29-27번지일대 가로주택정비",
    "loc": "명장동 29-27번지 일원",
    "gu": "동래구",
    "lat": 35.2033867797125,
    "lng": 129.098950445837
  },
  "BARA_0000000000185": {
    "name": "문현1 재개발",
    "loc": "자유평화로3번길 14-21, 601호 (범천동, 소망빌딩)",
    "gu": "남구",
    "lat": 35.1356830643961,
    "lng": 129.069293255916
  },
  "BARA_0000000000186": {
    "name": "문현3 재개발",
    "loc": "고동골로78번길 26, 3층(문현동)",
    "gu": "남구",
    "lat": 35.14638176,
    "lng": 129.0719974
  },
  "BARA_0000000030130": {
    "name": "문현4동 가로주택정비",
    "loc": "부산광역시 남구 우암로362번길 7, 3층",
    "gu": "남구",
    "lat": 35.134164,
    "lng": 129.067533
  },
  "BARA_0000000030165": {
    "name": "문현6 재개발",
    "loc": "남구 수영로 26(문현동, 문현대림시티프라자 상가 208호)",
    "gu": "남구",
    "lat": 35.1362909579584,
    "lng": 129.070460615253
  },
  "BARA_0000000030085": {
    "name": "문현대성 가로주택정비",
    "loc": "문현로 66번길 41, 대성아파트 E동 205호",
    "gu": "남구",
    "lat": 35.141884,
    "lng": 129.074658
  },
  "BARA_0000000030090": {
    "name": "문화아파트 소규모재건축사업 소규모재건축",
    "loc": "부산광역시 부산진구 시민공원로 38, 문화아파트 103호",
    "gu": "부산진구",
    "lat": 35.163543,
    "lng": 129.053947
  },
  "BARA_0000000030100": {
    "name": "민락2 재개발",
    "loc": "무학로63번길 115",
    "gu": "수영구",
    "lat": 35.166127,
    "lng": 129.118898
  },
  "BARA_0000000000018": {
    "name": "반여1-1 재개발",
    "loc": "부산광역시 해운대구 반여로21, 2층(반여동)",
    "gu": "해운대구",
    "lat": 35.19620994,
    "lng": 129.1219916
  },
  "BARA_0000000000019": {
    "name": "반여1-2 재개발",
    "loc": "부산광역시 해운대구 반여로 66, 4층(반여동, 한화빌딩)",
    "gu": "해운대구",
    "lat": 35.19599025,
    "lng": 129.1193881
  },
  "BARA_0000000000028": {
    "name": "반여3 재건축",
    "loc": "부산광역시 해운대구 선수촌로 65-29, 4층",
    "gu": "해운대구",
    "lat": 35.19675925,
    "lng": 129.1178049
  },
  "BARA_0000000030000": {
    "name": "반여3-1 재건축",
    "loc": "부산광역시 해운대구 반여로 21, 경성빌딩 4층",
    "gu": "해운대구",
    "lat": 35.1949178,
    "lng": 129.1174158
  },
  "BARA_0000000000302": {
    "name": "반여4 재건축",
    "loc": "부산광역시 해운대구 삼어로91번길 120-21, 2층",
    "gu": "해운대구",
    "lat": 35.21050927,
    "lng": 129.1189839
  },
  "BARA_0000000000162": {
    "name": "범일2 재개발",
    "loc": "부산광역시 동구 범일일길 33",
    "gu": "동구",
    "lat": 35.13950945,
    "lng": 129.0581825
  },
  "BARA_0000000000024": {
    "name": "범일3 재개발",
    "loc": "부산광역시 동구 자성로141번길 11 (삼환오피스텔 703호)",
    "gu": "동구",
    "lat": 35.14006176,
    "lng": 129.0642369
  },
  "BARA_0000000000163": {
    "name": "범일3-1 재개발",
    "loc": "부산광역시 동구 조방로26번길 11 (동양오피스텔 502호)",
    "gu": "동구",
    "lat": 35.13951127,
    "lng": 129.0646846
  },
  "BARA_0000000030120": {
    "name": "범일동 가로주택정비",
    "loc": "부산시 동구 범일동 330-190번지 일원",
    "gu": "동구",
    "lat": 35.135396,
    "lng": 129.063056
  },
  "BARA_0000000030041": {
    "name": "범일동 제일상가아파트 가로주택정비",
    "loc": "동구 범일동 830-44번지 일원",
    "gu": "동구",
    "lat": 35.1397619,
    "lng": 129.0604681
  },
  "BARA_0000000030153": {
    "name": "범천1 가로주택정비",
    "loc": "부산광역시 부산진구 범일로 131번길 56, 3층(범천동)",
    "gu": "부산진구",
    "lat": 35.1437709671968,
    "lng": 129.058787135644
  },
  "BARA_0000000000047": {
    "name": "범천1-1 재개발",
    "loc": "범천동 850-1번지",
    "gu": "부산진구",
    "lat": 35.14669673,
    "lng": 129.061206
  },
  "BARA_0000000030034": {
    "name": "범천1-2 재개발",
    "loc": "범천동 851-1번지 일원",
    "gu": "부산진구",
    "lat": 35.1463528,
    "lng": 129.0617522
  },
  "BARA_0000000000276": {
    "name": "범천4 재개발",
    "loc": "범천동 1269-15",
    "gu": "부산진구",
    "lat": 35.14596172,
    "lng": 129.0528869
  },
  "BARA_0000000030146": {
    "name": "범천5 재개발",
    "loc": "부산광역시 부산진구 신암로 70, 2층(범천동)",
    "gu": "부산진구",
    "lat": 35.147932,
    "lng": 129.054441
  },
  "BARA_0000000000153": {
    "name": "복산1 재개발",
    "loc": "동래구 칠산동246번지 일원",
    "gu": "동래구",
    "lat": 35.2032509,
    "lng": 129.0882068
  },
  "BARA_0000000000218": {
    "name": "봉래1 재개발",
    "loc": "영도구 봉래동4가 69-1번지 일원",
    "gu": "영도구",
    "lat": 35.09339335,
    "lng": 129.0487471
  },
  "BARA_0000000030116": {
    "name": "봉래동3가 137번지 일원 가로주택정비",
    "loc": "부산광역시 영도구 봉래동3가 137번지 일원",
    "gu": "영도구",
    "lat": 35.094568,
    "lng": 129.044771
  },
  "BARA_0000000000070": {
    "name": "부곡2 재개발",
    "loc": "가마실로 19, 2층",
    "gu": "금정구",
    "lat": 35.22715824,
    "lng": 129.0950712
  },
  "BARA_0000000030092": {
    "name": "부곡3 가로주택정비",
    "loc": "서동로 5, 2층",
    "gu": "금정구",
    "lat": 35.2219954442353,
    "lng": 129.091249159638
  },
  "BARA_0000000030053": {
    "name": "부곡동 812-1번지 일원 소규모재건축",
    "loc": "부곡동 812-12, 2층",
    "gu": "금정구",
    "lat": 35.2211657,
    "lng": 129.0916494
  },
  "BARA_0000000000130": {
    "name": "부민2 재개발",
    "loc": "해돋이로269번길4, 이약국3층(아미동2가)",
    "gu": "서구",
    "lat": 35.100798,
    "lng": 129.015665
  },
  "BARA_0000000030104": {
    "name": "부민3 재개발",
    "loc": "부용로26번길 18, 1층(부용동2가)",
    "gu": "서구",
    "lat": 35.10682,
    "lng": 129.017342
  },
  "BARA_0000000000044": {
    "name": "부암1 재개발",
    "loc": "부산진구 부암동 560번지 일원",
    "gu": "부산진구",
    "lat": 35.17249745,
    "lng": 129.0358243
  },
  "BARA_0000000030033": {
    "name": "부원아파트(소규모) 소규모재건축",
    "loc": "양정동 406-6번지 일원",
    "gu": "부산진구",
    "lat": 35.1741851,
    "lng": 129.0712021
  },
  "BARA_0000000000056": {
    "name": "가야1 재개발",
    "loc": "가야동 410번지 일원(가야초교 남측 일원)",
    "gu": "부산진구",
    "lat": 35.151437,
    "lng": 129.036173
  },
  "BARA_0000000000050": {
    "name": "가야3 재개발",
    "loc": "가야동 186 일원",
    "gu": "부산진구",
    "lat": 35.15291529,
    "lng": 129.0309668
  },
  "BARA_0000000030138": {
    "name": "가야4 재개발",
    "loc": "부산광역시 부산진구 냉정로 266, 2층(가야동)",
    "gu": "부산진구",
    "lat": 35.15088,
    "lng": 129.028851
  },
  "BARA_0000000030185": {
    "name": "가야5 재개발",
    "loc": "부산진구 가야동 122-2",
    "gu": "부산진구",
    "lat": 35.155586992259,
    "lng": 129.030423161856
  },
  "BARA_0000000000196": {
    "name": "감만1 재개발",
    "loc": "우암로 134, 3층 (감만동, 삼진빌딩)",
    "gu": "남구",
    "lat": 35.11408869,
    "lng": 129.0827554
  },
  "BARA_0000000000170": {
    "name": "감천2 재개발",
    "loc": "사하구 감천1동 202일원",
    "gu": "사하구",
    "lat": 35.082437,
    "lng": 129.008753
  },
  "BARA_0000000000135": {
    "name": "개금2 재개발",
    "loc": "개금동 207-6 일원",
    "gu": "부산진구",
    "lat": 35.155011,
    "lng": 129.024459
  },
  "BARA_0000000000100": {
    "name": "거제1 재건축",
    "loc": "연제구 여고로130(거제동)",
    "gu": "연제구",
    "lat": 35.1982733,
    "lng": 129.0761572
  },
  "BARA_0000000000093": {
    "name": "거제2 재개발",
    "loc": "해맞이로81번길 8, 2층(거제동)",
    "gu": "연제구",
    "lat": 35.188961,
    "lng": 129.066105
  },
  "BARA_0000000030097": {
    "name": "거제2 재건축",
    "loc": "부산광역시 연제구 중앙대로1226번길 30, 205호",
    "gu": "연제구",
    "lat": 35.198242,
    "lng": 129.07969
  },
  "BARA_0000000030003": {
    "name": "거제동 가로주택정비",
    "loc": "연제구 법원로32번길 15,502호",
    "gu": "연제구",
    "lat": 35.1913698,
    "lng": 129.0775204
  },
  "BARA_0000000000085": {
    "name": "광안1 재건축",
    "loc": "수영로 517, 601호",
    "gu": "수영구",
    "lat": 35.15495524,
    "lng": 129.1087569
  },
  "BARA_0000000000072": {
    "name": "광안2 재개발",
    "loc": "수영로 565(광안동) 3층",
    "gu": "수영구",
    "lat": 35.15558108,
    "lng": 129.1084728
  },
  "BARA_0000000000086": {
    "name": "광안2 재건축",
    "loc": "수영로 55번길 49, 102호",
    "gu": "수영구",
    "lat": 35.1531932736837,
    "lng": 129.118976093583
  },
  "BARA_0000000030108": {
    "name": "광안3 재개발",
    "loc": "수영구 장대골로 70-1",
    "gu": "수영구",
    "lat": 35.159945,
    "lng": 129.105901
  },
  "BARA_0000000030141": {
    "name": "광안4 재개발",
    "loc": "수영구 수영로680번길 42, 2층",
    "gu": "수영구",
    "lat": 35.16604,
    "lng": 129.117215
  },
  "BARA_0000000000076": {
    "name": "광안A 재개발",
    "loc": "연수로 375, 보광빌딩3층",
    "gu": "수영구",
    "lat": 35.17174918,
    "lng": 129.1046353
  },
  "BARA_0000000030056": {
    "name": "괴정1 가로주택정비",
    "loc": "부산광역시 사하구 대티로1번길 39, 1층",
    "gu": "사하구",
    "lat": 35.1049199,
    "lng": 128.9989014
  },
  "BARA_0000000030187": {
    "name": "괴정11 재개발",
    "loc": "사리로7번길 3, 2층",
    "gu": "사하구",
    "lat": 35.1004217531328,
    "lng": 128.999484924662
  },
  "BARA_0000000030177": {
    "name": "연산13 재개발",
    "loc": "부산광역시 연제구 중앙천로19번길 50,2층",
    "gu": "연제구",
    "lat": 35.1769204541016,
    "lng": 129.080912584766
  },
  "BARA_0000000000094": {
    "name": "연산1재개발 재개발",
    "loc": "연제구 연산동 1452번지 일원(노동청 뒤편)",
    "gu": "연제구",
    "lat": 35.18331005714854,
    "lng": 129.10179179175248
  },
  "BARA_0000000000095": {
    "name": "연산2 재개발",
    "loc": "연제구 연산동 1990번지 일원",
    "gu": "연제구",
    "lat": 35.1687074276471,
    "lng": 129.087644020248
  },
  "BARA_0000000030096": {
    "name": "연산2 가로주택정비",
    "loc": "부산광역시 연제구 거제천로 129",
    "gu": "연제구",
    "lat": 35.185309,
    "lng": 129.075325
  },
  "BARA_0000000000096": {
    "name": "연산3 재개발",
    "loc": "연산동 2022번지 일원",
    "gu": "연제구",
    "lat": 35.16957035,
    "lng": 129.0871228
  },
  "BARA_0000000000105": {
    "name": "연산4 재건축",
    "loc": "연제구 연산2동 772번지 일원(연산초교 밑 일원)",
    "gu": "연제구",
    "lat": 35.18253435743318,
    "lng": 129.1015731422831
  },
  "BARA_0000000000098": {
    "name": "연산5 재개발",
    "loc": "연제구 연제로33-1, 301호",
    "gu": "연제구",
    "lat": 35.178076,
    "lng": 129.078386
  },
  "BARA_0000000000334": {
    "name": "연산5(망미주공) 재건축",
    "loc": "연제구 토현로 10 나 상가 216호",
    "gu": "수영구",
    "lat": 35.181744457493,
    "lng": 129.115107227683
  },
  "BARA_0000000000099": {
    "name": "연산6 재개발",
    "loc": "연제구 연산2동 834-4번지 일원(양동초교 일원)",
    "gu": "연제구",
    "lat": 35.172955621592635,
    "lng": 129.09290761005707
  },
  "BARA_0000000000335": {
    "name": "연산6 재건축",
    "loc": "연제구 연산동 387-1번지 일원(한양아파트 일원)",
    "gu": "연제구",
    "lat": 35.19030059,
    "lng": 129.1016025
  },
  "BARA_0000000030134": {
    "name": "연산8 재개발",
    "loc": "부산광역시 연제구 연안로14번길 17. 1층",
    "gu": "연제구",
    "lat": 35.18917,
    "lng": 129.108182
  },
  "BARA_0000000030074": {
    "name": "연산강변1 가로주택정비",
    "loc": "연제구 과정로 342, 2층",
    "gu": "연제구",
    "lat": 35.1905984,
    "lng": 129.0908363
  },
  "BARA_0000000030038": {
    "name": "연산동 태광맨션 가로주택정비",
    "loc": "연제구 고분로235번길 26, 3층",
    "gu": "연제구",
    "lat": 35.1868674,
    "lng": 129.1070035
  },
  "BARA_0000000000046": {
    "name": "연지1-2 재개발",
    "loc": "초읍동 54-1번지 일원",
    "gu": "부산진구",
    "lat": 35.17163384,
    "lng": 129.0601482
  },
  "BARA_0000000000052": {
    "name": "연지2 재개발",
    "loc": "연지동 250-76번지 일원",
    "gu": "부산진구",
    "lat": 35.174134,
    "lng": 129.051524
  },
  "BARA_0000000000288": {
    "name": "영도제1재정비촉진5구역 재개발",
    "loc": "신선동3가 89-21번지 일원",
    "gu": "영도구",
    "lat": 35.08246641,
    "lng": 129.0446716
  },
  "BARA_0000000000274": {
    "name": "영주1 재건축",
    "loc": "영주동 2번지, 초량동 1064-1번지 일원",
    "gu": "중구",
    "lat": 35.11498621,
    "lng": 129.0339577
  },
  "BARA_0000000030110": {
    "name": "영주아파트 2블럭 가로주택정비",
    "loc": "부산광역시 중구 영주로 64-1",
    "gu": "중구",
    "lat": 35.11294,
    "lng": 129.030344
  },
  "BARA_0000000030127": {
    "name": "영주아파트3블럭 가로주택정비",
    "loc": "부산과아역시 중구 영초길 87 영주아파트 가-311호",
    "gu": "중구",
    "lat": 35.114133,
    "lng": 129.032243
  },
  "BARA_0000000000286": {
    "name": "온천1 재건축",
    "loc": "동래구 온천동 397-6번지 일원",
    "gu": "동래구",
    "lat": 35.212761,
    "lng": 129.075073
  },
  "BARA_0000000000212": {
    "name": "온천2 재개발",
    "loc": "동래구 온천동 885-2번지 일원",
    "gu": "동래구",
    "lat": 35.21114896,
    "lng": 129.070557
  },
  "BARA_0000000030166": {
    "name": "온천3 재건축",
    "loc": "동래구 충렬대로107번길 54, 1층 8호 (온천동, 럭키종합상가)",
    "gu": "동래구",
    "lat": 35.2098418293523,
    "lng": 129.074414771081
  },
  "BARA_0000000000214": {
    "name": "온천4 재개발",
    "loc": "동래구 온천동 100-13번지 일원",
    "gu": "동래구",
    "lat": 35.22160171,
    "lng": 129.0793905
  },
  "BARA_0000000030045": {
    "name": "온천제2공영아파트 일원 가로주택정비",
    "loc": "온천동 1370-1번지 일원",
    "gu": "동래구",
    "lat": 35.2009576,
    "lng": 129.0675018
  },
  "BARA_0000000030192": {
    "name": "용호1 재개발",
    "loc": "부산광역시 남구 용호로76번길 32, 3층 (용호동)",
    "gu": "남구",
    "lat": 35.1245634105343,
    "lng": 129.11043456943
  },
  "BARA_0000000000189": {
    "name": "용호2 재개발",
    "loc": "용호로 99, 3층(용호동)",
    "gu": "남구",
    "lat": 35.12086833,
    "lng": 129.1135141
  },
  "BARA_0000000000190": {
    "name": "용호3 재개발",
    "loc": "용호로 198번길 6, 2층 203호 (용호동, 레지던스)",
    "gu": "남구",
    "lat": 35.11173634,
    "lng": 129.1137226
  },
  "BARA_0000000030171": {
    "name": "용호4 재개발",
    "loc": "동명로158번길 86, 2층",
    "gu": "남구",
    "lat": 35.1153644117701,
    "lng": 129.113019090287
  },
  "BARA_0000000030172": {
    "name": "용호7 재개발",
    "loc": "동명로 158번길 86, 2층",
    "gu": "남구",
    "lat": 35.1153644117701,
    "lng": 129.113019090287
  },
  "BARA_0000000030191": {
    "name": "용호A 재개발",
    "loc": "부산광역시 남구 이기대공원로12번길 28, 2층 (용호동)",
    "gu": "남구",
    "lat": 35.1230235527766,
    "lng": 129.113751000549
  },
  "BARA_0000000000300": {
    "name": "우동1 재건축",
    "loc": "부산광역시 해운대구 해운대로 383번길 150, 301호",
    "gu": "해운대구",
    "lat": 35.1734523,
    "lng": 129.1372078
  },
  "BARA_0000000000022": {
    "name": "우동2재개발 재개발",
    "loc": "부산광역시 남구 수영로 18-8, 401호",
    "gu": "해운대구",
    "lat": 35.1585,
    "lng": 129.1599
  },
  "BARA_0000000000013": {
    "name": "우동3 재개발",
    "loc": "부산광역시 해운대구 중동1로 25-1, 7층",
    "gu": "해운대구",
    "lat": 35.165924,
    "lng": 129.159227
  },
  "BARA_0000000000271": {
    "name": "우동5 재개발",
    "loc": "부산광역시 해운대구 해운대로469번길 190, 상가동 108호",
    "gu": "해운대구",
    "lat": 35.17013827,
    "lng": 129.1405324
  },
  "BARA_0000000000192": {
    "name": "우암1 재개발",
    "loc": "우암로 148, 부산은행 우암점 2층(우암동)",
    "gu": "남구",
    "lat": 35.12791833,
    "lng": 129.0710305
  },
  "BARA_0000000000193": {
    "name": "우암2 재개발",
    "loc": "우암로 168-1, 3층",
    "gu": "남구",
    "lat": 35.1271847,
    "lng": 129.0755536
  },
  "BARA_0000000030058": {
    "name": "월성아파트 소규모재건축",
    "loc": "중앙대로1039번길 13 3층 302호",
    "gu": "연제구",
    "lat": 35.1818092,
    "lng": 129.0772214
  },
  "BARA_0000000030129": {
    "name": "이진캐스빌 소규모재건축",
    "loc": "부산광역시 해운대구 중동 1526-1번지 상가",
    "gu": "해운대구",
    "lat": 35.160087,
    "lng": 129.177229
  },
  "BARA_0000000030050": {
    "name": "일동파크맨션(소규모) 소규모재건축",
    "loc": "북구 덕천동 365-11번지 일원",
    "gu": "북구",
    "lat": 35.2154937,
    "lng": 129.0209512
  },
  "BARA_0000000000176": {
    "name": "장림1 재개발",
    "loc": "하신중앙로 176, 3층",
    "gu": "사하구",
    "lat": 35.08350613,
    "lng": 128.9701203
  },
  "BARA_0000000000030": {
    "name": "재송2 재건축",
    "loc": "부산광역시 해운대구 해운대로61번길 72",
    "gu": "해운대구",
    "lat": 35.193919,
    "lng": 129.126559
  },
  "BARA_0000000000031": {
    "name": "재송4 재건축",
    "loc": "재송동 1023번지 일원(재송삼익아파트)",
    "gu": "해운대구",
    "lat": 35.191116,
    "lng": 129.121317
  },
  "BARA_0000000000032": {
    "name": "재송5 재건축",
    "loc": "부산광역시 해운대구 재반로118번길 71(재송그린아파트관리사무소)",
    "gu": "해운대구",
    "lat": 35.190922,
    "lng": 129.129827
  },
  "BARA_0000000000057": {
    "name": "전포1-1 재개발",
    "loc": "전포동 15-2번지 일원",
    "gu": "부산진구",
    "lat": 35.16514895,
    "lng": 129.068049
  },
  "BARA_0000000030051": {
    "name": "정남아파트 주변 가로주택정비",
    "loc": "북구 만덕대로 155번길 40-11, 관리동 2층",
    "gu": "북구",
    "lat": 35.2152942,
    "lng": 129.0222671
  },
  "BARA_0000000030121": {
    "name": "좌천2구역 가로주택정비",
    "loc": "부산시 동구 좌천동 227번지 일원",
    "gu": "동구",
    "lat": 35.133239,
    "lng": 129.054737
  },
  "BARA_0000000000160": {
    "name": "좌천범일통합2지구 재개발",
    "loc": "부산광역시 동구 조방로17, 대웅빌딩2층",
    "gu": "동구",
    "lat": 35.13248,
    "lng": 129.056117
  },
  "BARA_0000000000159": {
    "name": "좌천범일통합3지구 재개발",
    "loc": "부산광역시 동구 성남로 47-1 2층",
    "gu": "동구",
    "lat": 35.13229206,
    "lng": 129.0573684
  },
  "BARA_0000000000229": {
    "name": "주례2 재개발",
    "loc": "사상구 주례동 809 일원",
    "gu": "사상구",
    "lat": 35.1539041961007,
    "lng": 129.01328121392328
  },
  "BARA_0000000030088": {
    "name": "중동5 재개발",
    "loc": "부산광역시 해운대구 중동 785-8번지, 1층",
    "gu": "해운대구",
    "lat": 35.162865,
    "lng": 129.174542
  },
  "BARA_0000000030101": {
    "name": "진일아파트 가로주택정비",
    "loc": "부산광역시 연제구 고분로 136 (연산동, 진일아파트)",
    "gu": "연제구",
    "lat": 35.185019,
    "lng": 129.096369
  },
  "BARA_0000000030200": {
    "name": "진주·봉황아파트 소규모재건축",
    "loc": "부산시 수영구 남천바다로 10번길 69, 403호",
    "gu": "수영구",
    "lat": 35.1467840228624,
    "lng": 129.111059227532
  },
  "BARA_0000000000059": {
    "name": "청룡1 재건축",
    "loc": "중앙대로 2128-12, 관리사무소",
    "gu": "금정구",
    "lat": 35.27418041,
    "lng": 129.0937096
  },
  "BARA_0000000000287": {
    "name": "청학1 재건축",
    "loc": "청학동 135번지 일원",
    "gu": "영도구",
    "lat": 35.0937148,
    "lng": 129.0632244
  },
  "BARA_0000000030083": {
    "name": "초량1구역 가로주택정비",
    "loc": "동구 초량동 42-9번지 일원",
    "gu": "동구",
    "lat": 35.1221892914139,
    "lng": 129.042468959135
  },
  "BARA_0000000000166": {
    "name": "초량2 재개발",
    "loc": "부산광역시 동구 망양로 607-1",
    "gu": "동구",
    "lat": 35.12558281,
    "lng": 129.0344894
  },
  "BARA_0000000000167": {
    "name": "초량3 재개발",
    "loc": "부산광역시 동구 홍곡로 19 1층",
    "gu": "동구",
    "lat": 35.12246661,
    "lng": 129.0386683
  },
  "BARA_0000000000141": {
    "name": "초읍1 재개발",
    "loc": "초읍동 51-187번지 삼광사 북측",
    "gu": "부산진구",
    "lat": 35.17772075,
    "lng": 129.0441377
  },
  "BARA_0000000000048": {
    "name": "초읍2 재개발",
    "loc": "초읍동 556번지 일원",
    "gu": "부산진구",
    "lat": 35.17972337,
    "lng": 129.050471
  },
  "BARA_0000000030103": {
    "name": "크로바아파트 소규모재건축",
    "loc": "남구 수영로250번길 50",
    "gu": "남구",
    "lat": 35.133791,
    "lng": 129.095929
  },
  "BARA_0000000030057": {
    "name": "태창파크맨션 소규모재건축",
    "loc": "수영구 민락동 11-1번지 일원",
    "gu": "수영구",
    "lat": 35.1605022,
    "lng": 129.1284214
  },
  "BARA_0000000000233": {
    "name": "하단1 재건축",
    "loc": "하단동 605-31번지 일원",
    "gu": "사하구",
    "lat": 35.104206,
    "lng": 128.962472
  },
  "BARA_0000000030176": {
    "name": "하단2 재개발",
    "loc": "하단동 240-4, 2층",
    "gu": "사하구",
    "lat": 35.1025122586449,
    "lng": 128.967735466261
  },
  "BARA_0000000030193": {
    "name": "하단3 재개발",
    "loc": "하단지오피아아파트 노인정",
    "gu": "사하구",
    "lat": 35.101676799524455,
    "lng": 128.95932880907267
  },
  "BARA_0000000030195": {
    "name": "하단4 재개발",
    "loc": "하단동 509-5, 우진맨션 A동 101호",
    "gu": "사하구",
    "lat": 35.1093427975584,
    "lng": 128.967802208522
  },
  "BARA_0000000030049": {
    "name": "한독아파트 소규모재건축",
    "loc": "연제구 봉수로 15(연산동, 한독아파트) 4동 206호",
    "gu": "연제구",
    "lat": 35.1731488,
    "lng": 129.0897096
  },
  "BARA_0000000030151": {
    "name": "현우산호맨션 소규모재건축",
    "loc": "부산광역시 해운대구 달맞이길117번나길 194, 1동 지하1층",
    "gu": "해운대구",
    "lat": 35.164432324846,
    "lng": 129.184796695001
  },
  "BARA_0000000030066": {
    "name": "협진신태양 소규모재건축(괴정) 소규모재건축",
    "loc": "사하구 사리로52, 2층(괴정동)",
    "gu": "사하구",
    "lat": 35.1043532,
    "lng": 128.9987596
  },
  "BARA_0000000000204": {
    "name": "화명2 재개발",
    "loc": "북구 양달로4번길 17 3층(화명동)",
    "gu": "북구",
    "lat": 35.23900481,
    "lng": 129.0162846
  },
  "BARA_0000000030149": {
    "name": "부전역 소규모재개발",
    "loc": "부산광역시 부산진구 새싹로 41-1, 2층(부전동)",
    "gu": "부산진구",
    "lat": 35.161169,
    "lng": 129.056027
  },
  "BARA_0000000030148": {
    "name": "분포목련아파트 가로주택정비",
    "loc": "부산광역시 남구 용호로 116, 2층(용호동)",
    "gu": "남구",
    "lat": 35.122118,
    "lng": 129.111949
  },
  "BARA_0000000030032": {
    "name": "사직 진성맨션블록 가로주택정비",
    "loc": "동래구 사직동 354-2번지 일원",
    "gu": "동래구",
    "lat": 35.2004596296185,
    "lng": 129.067368714842
  },
  "BARA_0000000000267": {
    "name": "사직1-5 재건축",
    "loc": "동래구 사직동 16-1번지 일원",
    "gu": "동래구",
    "lat": 35.20029065,
    "lng": 129.0594455
  },
  "BARA_0000000000295": {
    "name": "사직1-6 재건축",
    "loc": "동래구 사직동 630번지 일원",
    "gu": "동래구",
    "lat": 35.20229013,
    "lng": 129.0568913
  },
  "BARA_0000000030163": {
    "name": "사직4 재개발",
    "loc": "부산광역시 동래구 중앙대로 1275-1, 402호",
    "gu": "동래구",
    "lat": 35.2010521989981,
    "lng": 129.077449558902
  },
  "BARA_0000000030164": {
    "name": "사직5 재개발",
    "loc": "동래구 중앙대로1267번길 89, 2층",
    "gu": "동래구",
    "lat": 35.1989559010678,
    "lng": 129.073078521474
  },
  "BARA_0000000030055": {
    "name": "삼보아파트 가로주택정비",
    "loc": "연제구 세병로 34, 601호(연산동, 삼보아파트)",
    "gu": "연제구",
    "lat": 35.1915009,
    "lng": 129.0840846
  },
  "BARA_0000000000344": {
    "name": "삼부로얄 소규모재건축사업 소규모재건축",
    "loc": "부암동 80-6번지외1필지",
    "gu": "부산진구",
    "lat": 35.16582663,
    "lng": 129.0517429
  },
  "BARA_0000000030021": {
    "name": "삼성콘도맨션(소규모) 소규모재건축",
    "loc": "부산광역시 해운대구 중동1로 37번길 9, 3층",
    "gu": "해운대구",
    "lat": 35.16266771,
    "lng": 129.1670442
  },
  "BARA_0000000030023": {
    "name": "삼월주택 소규모재건축",
    "loc": "용호로 123번길 69, 203호(용호동, 영신맨션)",
    "gu": "남구",
    "lat": 35.12310688,
    "lng": 129.1126935
  },
  "BARA_0000000030048": {
    "name": "새들맨션 소규모재건축",
    "loc": "대청동4가 79-1",
    "gu": "중구",
    "lat": 35.1049085,
    "lng": 129.0297914
  },
  "BARA_0000000000314": {
    "name": "새연산아파트 소규모재건축",
    "loc": "연제구 거제천로230번길 53,상가동 202호(연산동, 연산센터빌)",
    "gu": "연제구",
    "lat": 35.18875512,
    "lng": 129.0838319
  },
  "BARA_0000000000294": {
    "name": "서금사재정비촉진5구역 재개발",
    "loc": "서명로 15-1, 3층",
    "gu": "금정구",
    "lat": 35.21623975,
    "lng": 129.0974176
  },
  "BARA_0000000000113": {
    "name": "서금사재정비촉진6구역 재개발",
    "loc": "서동로 129, 3층",
    "gu": "금정구",
    "lat": 35.21710112,
    "lng": 129.0986672
  },
  "BARA_0000000000107": {
    "name": "서금사재정비촉진A구역 재개발",
    "loc": "동현로16번길 83",
    "gu": "금정구",
    "lat": 35.22325731,
    "lng": 129.089805
  },
  "BARA_0000000000122": {
    "name": "서대신4 재개발",
    "loc": "대영로45번길20, 3층(서대신동2가)",
    "gu": "서구",
    "lat": 35.11419038,
    "lng": 129.0113804
  },
  "BARA_0000000000123": {
    "name": "서대신5 재개발",
    "loc": "대영로84, 3층(동대신동1가)",
    "gu": "서구",
    "lat": 35.11080889,
    "lng": 129.0108378
  },
  "BARA_0000000000124": {
    "name": "서대신6 재개발",
    "loc": "서대신동2가 414-1일원",
    "gu": "서구",
    "lat": 35.10966195,
    "lng": 129.0114461
  },
  "BARA_0000000000125": {
    "name": "서대신7 재개발",
    "loc": "서대신동1가 212일원",
    "gu": "서구",
    "lat": 35.10826383,
    "lng": 129.0158791
  },
  "BARA_0000000000310": {
    "name": "성암아파트 소규모재건축사업 소규모재건축",
    "loc": "부산광역시 부산진구 부암동 80-8번지",
    "gu": "부산진구",
    "lat": 35.16520017,
    "lng": 129.0518207
  },
  "BARA_0000000030030": {
    "name": "성창아파트 소규모재건축",
    "loc": "수영로 275-8, 107호",
    "gu": "남구",
    "lat": 35.13612577,
    "lng": 129.0964908
  },
  "BARA_0000000030012": {
    "name": "세화아파트 소규모재건축",
    "loc": "부산진구 진연로9번길 16 ,4층(양정동)",
    "gu": "부산진구",
    "lat": 35.18147634,
    "lng": 129.0733486
  },
  "BARA_0000000000282": {
    "name": "수안1 재건축",
    "loc": "동래구 수안동 665-1번지(해바라기1,2차, 새동래 마)",
    "gu": "동래구",
    "lat": 35.20189661,
    "lng": 129.0813609
  },
  "BARA_0000000000284": {
    "name": "수안3 재건축",
    "loc": "동래구 수안동 34-1번지(새동래3차)",
    "gu": "동래구",
    "lat": 35.19578583,
    "lng": 129.0863742
  },
  "BARA_0000000000291": {
    "name": "수영1 재건축",
    "loc": "수영구 수영동 541번지 일원",
    "gu": "수영구",
    "lat": 35.1678831748625,
    "lng": 129.122928394126
  },
  "BARA_0000000030128": {
    "name": "수영1 재개발",
    "loc": "수영구 구락로74, 1층",
    "gu": "수영구",
    "lat": 35.173699,
    "lng": 129.117148
  },
  "BARA_0000000030060": {
    "name": "수영아파트 가로주택정비",
    "loc": "수영구 연수로372, 2층 201호",
    "gu": "수영구",
    "lat": 35.170265,
    "lng": 129.110595
  },
  "BARA_0000000000330": {
    "name": "화명2 재건축",
    "loc": "북구 금곡대로 280-9, 시영아파트(화명동)",
    "gu": "북구",
    "lat": 35.23298283,
    "lng": 129.0147145
  },
  "BARA_0000000000205": {
    "name": "화명3 재개발",
    "loc": "산성로47번길 1, 3층(화명동)",
    "gu": "북구",
    "lat": 35.24320339,
    "lng": 129.0191111
  },
  "BARA_0000000030052": {
    "name": "화목타운 소규모재건축",
    "loc": "수영구 남천동 47-1번지",
    "gu": "수영구",
    "lat": 35.1489715,
    "lng": 129.1103002
  },
  "BARA_0000000030019": {
    "name": "효성아파트 소규모재건축",
    "loc": "연제구 중앙대로1038번길 54, 부녀회사무실(연산동, 효성아파트)",
    "gu": "연제구",
    "lat": 35.17897754,
    "lng": 129.0795371
  },
  "BARA_0000000000148": {
    "name": "시민공원주변재정비촉진1구역 재개발",
    "loc": "부산진구 부암동 27-7번지 일원",
    "gu": "부산진구",
    "lat": 35.1663781712106,
    "lng": 129.052629146843
  },
  "BARA_0000000000149": {
    "name": "시민공원주변재정비촉진2-1구역 재개발",
    "loc": "범전동 263-5번지 일원",
    "gu": "부산진구",
    "lat": 35.16451876,
    "lng": 129.0579941
  },
  "BARA_0000000000150": {
    "name": "시민공원주변재정비촉진2-2구역 재개발",
    "loc": "범전동 400번지 일원",
    "gu": "부산진구",
    "lat": 35.163303,
    "lng": 129.055283
  },
  "BARA_0000000000151": {
    "name": "시민공원주변재정비촉진3구역 재개발",
    "loc": "범전동 71-5번지 일원",
    "gu": "부산진구",
    "lat": 35.16883968,
    "lng": 129.0637217
  },
  "BARA_0000000000152": {
    "name": "시민공원주변재정비촉진4구역 재개발",
    "loc": "양정동 445-15번지 일원",
    "gu": "부산진구",
    "lat": 35.17107588,
    "lng": 129.0632472
  },
  "BARA_0000000030022": {
    "name": "신서면아파트 소규모재건축사업 소규모재건축",
    "loc": "부산광역시 부산진구 부암동 669-6번지 일원",
    "gu": "부산진구",
    "lat": 35.16247706,
    "lng": 129.0543977
  },
  "BARA_0000000030073": {
    "name": "신양아파트 소규모재건축사업 소규모재건축",
    "loc": "부산광역시 부산진구 진사로25번길 3, 2층(개금동)",
    "gu": "부산진구",
    "lat": 35.149452,
    "lng": 129.01633
  },
  "BARA_0000000000154": {
    "name": "안락1 재건축",
    "loc": "동래구 안락동 1230번지 일원",
    "gu": "동래구",
    "lat": 35.19991117,
    "lng": 129.1095539
  },
  "BARA_0000000000272": {
    "name": "안락3 재건축",
    "loc": "동래구 안락동 152-10번지 일원",
    "gu": "동래구",
    "lat": 35.192209,
    "lng": 129.106167
  },
  "BARA_0000000000043": {
    "name": "양정1 재개발",
    "loc": "부산진구 양정동 73-7번지 일원",
    "gu": "부산진구",
    "lat": 35.17174919,
    "lng": 129.0745729
  },
  "BARA_0000000030020": {
    "name": "양정1 가로주택정비",
    "loc": "양정동 320-1번지 일원",
    "gu": "부산진구",
    "lat": 35.1746445529983,
    "lng": 129.069035639677
  },
  "BARA_0000000000051": {
    "name": "양정2 재개발",
    "loc": "양정동 12-6번지 일원",
    "gu": "부산진구",
    "lat": 35.17343942,
    "lng": 129.079179
  },
  "BARA_0000000000142": {
    "name": "양정3 재개발",
    "loc": "양정동 64-3번지 일원",
    "gu": "부산진구",
    "lat": 35.17280242,
    "lng": 129.0738966
  },
  "BARA_0000000030189": {
    "name": "양정4 재개발",
    "loc": "부산진구 양정동 366-40",
    "gu": "부산진구",
    "lat": 35.1680090490987,
    "lng": 129.069162358953
  },
  "BARA_0000000030042": {
    "name": "양정산정 가로주택정비",
    "loc": "부산진구 양정동 138-12번지 일원",
    "gu": "부산진구",
    "lat": 35.1752259,
    "lng": 129.0762574
  },
  "BARA_0000000030016": {
    "name": "양정산호아파트 소규모재건축",
    "loc": "부산광역시 부산진구 연수로 18, 3층(양정동)",
    "gu": "부산진구",
    "lat": 35.17470152,
    "lng": 129.0743701
  },
  "BARA_0000000000226": {
    "name": "엄궁1 재개발",
    "loc": "사상구 엄궁동 412 일원",
    "gu": "사상구",
    "lat": 35.12762,
    "lng": 128.971817
  },
  "BARA_0000000000228": {
    "name": "엄궁3 재개발",
    "loc": "사상구 엄궁동 132 일원",
    "gu": "사상구",
    "lat": 35.12548053,
    "lng": 128.9740988
  },
  "BARA_0000000030069": {
    "name": "괴정7 재개발",
    "loc": "",
    "gu": "사하구",
    "lat": 0.0,
    "lng": 0.0
  },
  "BARA_0000000030061": {
    "name": "교리테스트 재개발",
    "loc": "123",
    "gu": "",
    "lat": 0.0,
    "lng": 0.0
  },
  "BARA_0000000030062": {
    "name": "교리테스트 재개발",
    "loc": "",
    "gu": "",
    "lat": 0.0,
    "lng": 0.0
  },
  "BARA_0000000030089": {
    "name": "금보빌라타운 소규모재건축",
    "loc": "",
    "gu": "금정구",
    "lat": 0.0,
    "lng": 0.0
  },
  "BARA_0000000030098": {
    "name": "낙민1 가로주택정비",
    "loc": "",
    "gu": "동래구",
    "lat": 0.0,
    "lng": 0.0
  },
  "BARA_0000000030137": {
    "name": "낙민1 재건축",
    "loc": "",
    "gu": "동래구",
    "lat": 0.0,
    "lng": 0.0
  },
  "BARA_0000000030109": {
    "name": "다대3 재건축",
    "loc": "",
    "gu": "사하구",
    "lat": 0.0,
    "lng": 0.0
  },
  "BARA_0000000030082": {
    "name": "당리1 가로주택정비",
    "loc": "",
    "gu": "사하구",
    "lat": 0.0,
    "lng": 0.0
  },
  "BARA_0000000030158": {
    "name": "당리2 가로주택정비",
    "loc": "",
    "gu": "사하구",
    "lat": 0.0,
    "lng": 0.0
  },
  "BARA_0000000030105": {
    "name": "덕천동 347-3번지 일원 가로주택정비",
    "loc": "",
    "gu": "북구",
    "lat": 0.0,
    "lng": 0.0
  },
  "BARA_0000000030084": {
    "name": "덕천동 365-26번지 일원 가로주택정비",
    "loc": "",
    "gu": "북구",
    "lat": 0.0,
    "lng": 0.0
  },
  "BARA_0000000030152": {
    "name": "동래역 삼창 소규모재개발",
    "loc": "",
    "gu": "동래구",
    "lat": 0.0,
    "lng": 0.0
  },
  "BARA_0000000030080": {
    "name": "동서산장 소규모재건축",
    "loc": "",
    "gu": "금정구",
    "lat": 0.0,
    "lng": 0.0
  },
  "BARA_0000000030155": {
    "name": "동원맨션 소규모재건축",
    "loc": "",
    "gu": "동래구",
    "lat": 0.0,
    "lng": 0.0
  },
  "BARA_0000000030170": {
    "name": "망미5 재개발",
    "loc": "",
    "gu": "수영구",
    "lat": 0.0,
    "lng": 0.0
  },
  "BARA_0000000030194": {
    "name": "망미8 재개발",
    "loc": "",
    "gu": "수영구",
    "lat": 0.0,
    "lng": 0.0
  },
  "BARA_0000000030139": {
    "name": "명서1 재개발",
    "loc": "",
    "gu": "동래구",
    "lat": 0.0,
    "lng": 0.0
  },
  "BARA_0000000030123": {
    "name": "명장2 재개발",
    "loc": "",
    "gu": "동래구",
    "lat": 0.0,
    "lng": 0.0
  },
  "BARA_0000000030132": {
    "name": "명장2 가로주택정비",
    "loc": "",
    "gu": "동래구",
    "lat": 0.0,
    "lng": 0.0
  },
  "BARA_0000000030143": {
    "name": "명장3 재건축",
    "loc": "",
    "gu": "동래구",
    "lat": 0.0,
    "lng": 0.0
  },
  "BARA_0000000030183": {
    "name": "명장5구역 재개발",
    "loc": "",
    "gu": "동래구",
    "lat": 0.0,
    "lng": 0.0
  },
  "BARA_0000000030081": {
    "name": "명장삼보맨션 소규모재건축",
    "loc": "",
    "gu": "동래구",
    "lat": 0.0,
    "lng": 0.0
  },
  "BARA_0000000030115": {
    "name": "벧엘아파트 소규모재건축",
    "loc": "",
    "gu": "동래구",
    "lat": 0.0,
    "lng": 0.0
  },
  "BARA_0000000030131": {
    "name": "봉래동2가 75-1번지 일원 가로주택정비",
    "loc": "",
    "gu": "영도구",
    "lat": 0.0,
    "lng": 0.0
  },
  "BARA_0000000030079": {
    "name": "부곡동 841-40 가로주택정비",
    "loc": "",
    "gu": "금정구",
    "lat": 0.0,
    "lng": 0.0
  },
  "BARA_0000000030169": {
    "name": "개금주공1단지 재건축",
    "loc": "",
    "gu": "부산진구",
    "lat": 0.0,
    "lng": 0.0
  },
  "BARA_0000000030156": {
    "name": "거제3 재개발",
    "loc": "",
    "gu": "연제구",
    "lat": 0.0,
    "lng": 0.0
  },
  "BARA_0000000030179": {
    "name": "거제3 재건축",
    "loc": "",
    "gu": "연제구",
    "lat": 0.0,
    "lng": 0.0
  },
  "BARA_0000000030184": {
    "name": "거제4 재건축",
    "loc": "",
    "gu": "연제구",
    "lat": 0.0,
    "lng": 0.0
  },
  "BARA_0000000030162": {
    "name": "광안5 재개발",
    "loc": "",
    "gu": "수영구",
    "lat": 0.0,
    "lng": 0.0
  },
  "BARA_0000000030046": {
    "name": "광안동 373블럭 가로주택정비",
    "loc": "대한토지신탁",
    "gu": "수영구",
    "lat": 35.152696269245034,
    "lng": 129.11276171119312
  },
  "BARA_0000000030102": {
    "name": "광안동 부흥·부광 소규모재건축",
    "loc": "",
    "gu": "수영구",
    "lat": 0.0,
    "lng": 0.0
  },
  "BARA_0000000030175": {
    "name": "괘법1 재개발",
    "loc": "",
    "gu": "사상구",
    "lat": 0.0,
    "lng": 0.0
  },
  "BARA_0000000030180": {
    "name": "연산12 재개발",
    "loc": "",
    "gu": "연제구",
    "lat": 0.0,
    "lng": 0.0
  },
  "BARA_0000000030145": {
    "name": "연산7 재개발",
    "loc": "",
    "gu": "연제구",
    "lat": 0.0,
    "lng": 0.0
  },
  "BARA_0000000030086": {
    "name": "연산동 1291번지 일원 가로주택정비",
    "loc": "",
    "gu": "연제구",
    "lat": 0.0,
    "lng": 0.0
  },
  "BARA_0000000030159": {
    "name": "연지3 재개발",
    "loc": "",
    "gu": "연제구",
    "lat": 0.0,
    "lng": 0.0
  },
  "BARA_0000000030136": {
    "name": "온천5 재개발",
    "loc": "",
    "gu": "동래구",
    "lat": 0.0,
    "lng": 0.0
  },
  "BARA_0000000030075": {
    "name": "온천동 공작아파트 일원 가로주택정비",
    "loc": "",
    "gu": "동래구",
    "lat": 0.0,
    "lng": 0.0
  },
  "BARA_0000000030091": {
    "name": "일동대영아파트 소규모재건축",
    "loc": "",
    "gu": "북구",
    "lat": 0.0,
    "lng": 0.0
  },
  "BARA_0000000030161": {
    "name": "장림동 현대아파트 재건축",
    "loc": "",
    "gu": "사하구",
    "lat": 0.0,
    "lng": 0.0
  },
  "BARA_0000000000156": {
    "name": "좌천2 재개발",
    "loc": "조합해산",
    "gu": "동구",
    "lat": 35.129390211422,
    "lng": 129.057177560513
  },
  "BARA_0000000000158": {
    "name": "좌천범일8지구 재개발",
    "loc": "",
    "gu": "동구",
    "lat": 0.0,
    "lng": 0.0
  },
  "BARA_0000000030178": {
    "name": "주례1 재건축",
    "loc": "",
    "gu": "사상구",
    "lat": 0.0,
    "lng": 0.0
  },
  "BARA_0000000030077": {
    "name": "주례동 54-9번지 일원 가로주택정비",
    "loc": "",
    "gu": "사상구",
    "lat": 0.0,
    "lng": 0.0
  },
  "BARA_0000000030119": {
    "name": "청학2 재개발",
    "loc": "",
    "gu": "영도구",
    "lat": 0.0,
    "lng": 0.0
  },
  "BARA_0000000000165": {
    "name": "초량1 재개발",
    "loc": "조합해산",
    "gu": "동구",
    "lat": 35.1142554421192,
    "lng": 129.042829101501
  },
  "BARA_0000000000161": {
    "name": "초량1-1 재개발",
    "loc": "조합해산",
    "gu": "동구",
    "lat": 35.1142554421192,
    "lng": 129.042829101501
  },
  "BARA_0000000000027": {
    "name": "초량1-3 재개발",
    "loc": "조합해산",
    "gu": "동구",
    "lat": 35.11613971060701,
    "lng": 129.0454513134018
  },
  "BARA_0000000030076": {
    "name": "태원아파트일원 가로주택정비",
    "loc": "",
    "gu": "해운대구",
    "lat": 0.0,
    "lng": 0.0
  },
  "BARA_0000000030181": {
    "name": "학장1 재건축",
    "loc": "",
    "gu": "사상구",
    "lat": 0.0,
    "lng": 0.0
  },
  "BARA_0000000030117": {
    "name": "사직2 재개발",
    "loc": "",
    "gu": "동래구",
    "lat": 0.0,
    "lng": 0.0
  },
  "BARA_0000000030135": {
    "name": "사직3 재개발",
    "loc": "",
    "gu": "동래구",
    "lat": 0.0,
    "lng": 0.0
  },
  "BARA_0000000030067": {
    "name": "사하오성맨션 소규모재건축(괴정) 소규모재건축",
    "loc": "",
    "gu": "사하구",
    "lat": 0.0,
    "lng": 0.0
  },
  "BARA_0000000030140": {
    "name": "상록아파트 소규모재건축",
    "loc": "",
    "gu": "연제구",
    "lat": 0.0,
    "lng": 0.0
  },
  "BARA_0000000030160": {
    "name": "서동역2구역 가로주택정비",
    "loc": "",
    "gu": "금정구",
    "lat": 0.0,
    "lng": 0.0
  },
  "BARA_0000000030173": {
    "name": "수안1 재개발",
    "loc": "",
    "gu": "동래구",
    "lat": 0.0,
    "lng": 0.0
  },
  "BARA_0000000030072": {
    "name": "수안동반도보라맨션 소규모재건축",
    "loc": "",
    "gu": "동래구",
    "lat": 0.0,
    "lng": 0.0
  },
  "BARA_0000000030113": {
    "name": "수영구 산정수영아파트 소규모재건축",
    "loc": "",
    "gu": "수영구",
    "lat": 0.0,
    "lng": 0.0
  },
  "BARA_0000000000157": {
    "name": "수정1 재개발",
    "loc": "조합해산",
    "gu": "동구",
    "lat": 35.12504821040297,
    "lng": 129.0404552149961
  },
  "BARA_0000000030199": {
    "name": "수정2구역 재개발",
    "loc": "",
    "gu": "동구",
    "lat": 0.0,
    "lng": 0.0
  },
  "BARA_0000000030202": {
    "name": "수정3 재개발",
    "loc": "",
    "gu": "동구",
    "lat": 0.0,
    "lng": 0.0
  },
  "BARA_0000000030099": {
    "name": "신낙민3 소규모재건축",
    "loc": "",
    "gu": "동래구",
    "lat": 0.0,
    "lng": 0.0
  },
  "BARA_0000000030182": {
    "name": "안락1 재개발",
    "loc": "",
    "gu": "동래구",
    "lat": 0.0,
    "lng": 0.0
  },
  "BARA_0000000030094": {
    "name": "안락동 144 가로주택정비",
    "loc": "",
    "gu": "동래구",
    "lat": 0.0,
    "lng": 0.0
  },
  "BARA_0000000030188": {
    "name": "엄궁 신흥동백 소규모재건축",
    "loc": "",
    "gu": "사상구",
    "lat": 0.0,
    "lng": 0.0
  },
  "BARA_0000000030095": {
    "name": "여고북로123번길 46-3 가로주택정비",
    "loc": "",
    "gu": "연제구",
    "lat": 0.0,
    "lng": 0.0
  },
  "BARA_0000000030144": {
    "name": "연산10 재개발",
    "loc": "",
    "gu": "연제구",
    "lat": 0.0,
    "lng": 0.0
  },
  "BARA_0000000030186": {
    "name": "연산11구역 재개발",
    "loc": "",
    "gu": "연제구",
    "lat": 0.0,
    "lng": 0.0
  }
}
